{
    "abidjan_ivory_coast": {
        "City": "Abidjan",
        "Country": "Ivory Coast",
        "Lat": 5.3599517,
        "Long": -4.0082563,
        "PlaceID": "abidjan_ivory_coast",
        "PlaceName": "Abidjan, Ivory Coast",
        "Region": ""
    },
    "accompong_jamaica": {
        "City": "Accompong",
        "Country": "Jamaica",
        "Lat": 18.2278534,
        "Long": -77.7509303,
        "PlaceID": "accompong_jamaica",
        "PlaceName": "Accompong, Jamaica",
        "Region": ""
    },
    "accra_ghana": {
        "City": "Accra",
        "Country": "Ghana",
        "Lat": 5.6037168,
        "Long": -0.1869644,
        "PlaceID": "accra_ghana",
        "PlaceName": "Accra, Ghana",
        "Region": ""
    },
    "addis_abeba_ethiopia": {
        "City": "Addis-Abeba",
        "Country": "Ethiopia",
        "Lat": 8.9806034,
        "Long": 38.7577605,
        "PlaceID": "addis_abeba_ethiopia",
        "PlaceName": "Addis-Abeba, Ethiopia",
        "Region": ""
    },
    "amsterdam_holland": {
        "City": "Amsterdam",
        "Country": "Holland",
        "Lat": 52.3702157,
        "Long": 4.8951679,
        "PlaceID": "amsterdam_holland",
        "PlaceName": "Amsterdam, Holland",
        "Region": ""
    },
    "angouleme_france": {
        "City": "Angoulême",
        "Country": "France",
        "Lat": 45.648377,
        "Long": 0.1562369,
        "PlaceID": "angouleme_france",
        "PlaceName": "Angoulême, France",
        "Region": ""
    },
    "auschwitz_poland": {
        "City": "Auschwitz",
        "Country": "Poland",
        "Lat": 50.0274106,
        "Long": 19.2019829,
        "PlaceID": "auschwitz_poland",
        "PlaceName": "Auschwitz, Poland",
        "Region": ""
    },
    "australia": {
        "City": "",
        "Country": "Australia",
        "Lat": -25.274398,
        "Long": 133.775136,
        "PlaceID": "australia",
        "PlaceName": "Australia",
        "Region": ""
    },
    "austria": {
        "City": "",
        "Country": "Austria",
        "Lat": 47.516231,
        "Long": 14.550072,
        "PlaceID": "austria",
        "PlaceName": "Austria",
        "Region": ""
    },
    "avignon_france": {
        "City": "Avignon",
        "Country": "France",
        "Lat": 43.949317,
        "Long": 4.805528,
        "PlaceID": "avignon_france",
        "PlaceName": "Avignon, France",
        "Region": ""
    },
    "basse_pointe_martinique": {
        "City": "Basse-Pointe",
        "Country": "Martinique",
        "Lat": 14.8672508,
        "Long": -61.1155622,
        "PlaceID": "basse_pointe_martinique",
        "PlaceName": "Basse-Pointe, Martinique",
        "Region": ""
    },
    "basseterre_st_kitts_and_nevis": {
        "City": "Basseterre",
        "Country": "St. Kitts and Nevis",
        "Lat": 17.3026058,
        "Long": -62.7176924,
        "PlaceID": "basseterre_st_kitts_and_nevis",
        "PlaceName": "Basseterre, St. Kitts and Nevis",
        "Region": ""
    },
    "belfast_northern_ireland": {
        "City": "Belfast",
        "Country": "Northern Ireland",
        "Lat": 54.597285,
        "Long": -5.93012,
        "PlaceID": "belfast_northern_ireland",
        "PlaceName": "Belfast, Northern Ireland",
        "Region": ""
    },
    "berlin_germany": {
        "City": "Berlin",
        "Country": "Germany",
        "Lat": 52.5200066,
        "Long": 13.404954,
        "PlaceID": "berlin_germany",
        "PlaceName": "Berlin, Germany",
        "Region": ""
    },
    "bologna_italy": {
        "City": "Bologna",
        "Country": "Italy",
        "Lat": 44.494887,
        "Long": 11.3426162,
        "PlaceID": "bologna_italy",
        "PlaceName": "Bologna, Italy",
        "Region": ""
    },
    "boston_massachusetts_usa": {
        "City": "Boston",
        "Country": "USA",
        "Lat": 42.3600825,
        "Long": -71.0588801,
        "PlaceID": "boston_massachusetts_usa",
        "PlaceName": "Boston, Massachusetts, USA",
        "Region": "Massachusetts"
    },
    "bournemouth_england": {
        "City": "Bournemouth",
        "Country": "England",
        "Lat": 50.719164,
        "Long": -1.880769,
        "PlaceID": "bournemouth_england",
        "PlaceName": "Bournemouth, England",
        "Region": ""
    },
    "bremen_germany": {
        "City": "Bremen",
        "Country": "Germany",
        "Lat": 53.0792962,
        "Long": 8.8016936,
        "PlaceID": "bremen_germany",
        "PlaceName": "Bremen, Germany",
        "Region": ""
    },
    "bridgetown_barbados": {
        "City": "Bridgetown",
        "Country": "Barbados",
        "Lat": 13.0968511,
        "Long": -59.6144819,
        "PlaceID": "bridgetown_barbados",
        "PlaceName": "Bridgetown, Barbados",
        "Region": ""
    },
    "brooklyn_new_york_usa": {
        "City": "Brooklyn",
        "Country": "USA",
        "Lat": 40.6781784,
        "Long": -73.9441579,
        "PlaceID": "brooklyn_new_york_usa",
        "PlaceName": "Brooklyn, New York, USA",
        "Region": "New York"
    },
    "brown's_town_st_ann_jamaica": {
        "City": "Brown's Town",
        "Country": "Jamaica",
        "Lat": 18.3900766,
        "Long": -77.3849869,
        "PlaceID": "brown's_town_st_ann_jamaica",
        "PlaceName": "Brown's Town, St. Ann, Jamaica",
        "Region": "St. Ann"
    },
    "brussels_belgium": {
        "City": "Brussels",
        "Country": "Belgium",
        "Lat": 50.8503463,
        "Long": 4.3517211,
        "PlaceID": "brussels_belgium",
        "PlaceName": "Brussels, Belgium",
        "Region": ""
    },
    "bucarest_romania": {
        "City": "Bucarest",
        "Country": "Romania",
        "Lat": 44.4267674,
        "Long": 26.1025384,
        "PlaceID": "bucarest_romania",
        "PlaceName": "Bucarest, Romania",
        "Region": ""
    },
    "buenos_aires_argentina": {
        "City": "Buenos Aires",
        "Country": "Argentina",
        "Lat": -34.6036844,
        "Long": -58.3815591,
        "PlaceID": "buenos_aires_argentina",
        "PlaceName": "Buenos Aires, Argentina",
        "Region": ""
    },
    "cambridge_england": {
        "City": "Cambridge",
        "Country": "England",
        "Lat": 52.205337,
        "Long": 0.121817,
        "PlaceID": "cambridge_england",
        "PlaceName": "Cambridge, England",
        "Region": ""
    },
    "cambridge_massachusetts_usa": {
        "City": "Cambridge",
        "Country": "USA",
        "Lat": 42.3736158,
        "Long": -71.1097335,
        "PlaceID": "cambridge_massachusetts_usa",
        "PlaceName": "Cambridge, Massachusetts, USA",
        "Region": "Massachusetts"
    },
    "carbondale_illinois_usa": {
        "City": "Carbondale",
        "Country": "USA",
        "Lat": 37.7272727,
        "Long": -89.2167501,
        "PlaceID": "carbondale_illinois_usa",
        "PlaceName": "Carbondale, Illinois, USA",
        "Region": "Illinois"
    },
    "carmel_california_usa": {
        "City": "Carmel",
        "Country": "USA",
        "Lat": 36.5552386,
        "Long": -121.9232879,
        "PlaceID": "carmel_california_usa",
        "PlaceName": "Carmel, California, USA",
        "Region": "California"
    },
    "castries_saint_lucia": {
        "City": "Castries",
        "Country": "Saint Lucia",
        "Lat": 14.0101094,
        "Long": -60.9874687,
        "PlaceID": "castries_saint_lucia",
        "PlaceName": "Castries, Saint Lucia",
        "Region": ""
    },
    "charleston_north_carolina_usa": {
        "City": "Charleston",
        "Country": "USA",
        "Lat": 36.1201561,
        "Long": -77.3755239,
        "PlaceID": "charleston_north_carolina_usa",
        "PlaceName": "Charleston, North Carolina, USA",
        "Region": "North Carolina"
    },
    "chicago_illinois_usa": {
        "City": "Chicago",
        "Country": "USA",
        "Lat": 41.8781136,
        "Long": -87.6297982,
        "PlaceID": "chicago_illinois_usa",
        "PlaceName": "Chicago, Illinois, USA",
        "Region": "Illinois"
    },
    "cincinnati_ohio_usa": {
        "City": "Cincinnati",
        "Country": "USA",
        "Lat": 39.1031182,
        "Long": -84.5120196,
        "PlaceID": "cincinnati_ohio_usa",
        "PlaceName": "Cincinnati, Ohio, USA",
        "Region": "Ohio"
    },
    "cleveland_ohio_usa": {
        "City": "Cleveland",
        "Country": "USA",
        "Lat": 41.49932,
        "Long": -81.6943605,
        "PlaceID": "cleveland_ohio_usa",
        "PlaceName": "Cleveland, Ohio, USA",
        "Region": "Ohio"
    },
    "colombia": {
        "City": "",
        "Country": "Colombia",
        "Lat": 4.570868,
        "Long": -74.297333,
        "PlaceID": "colombia",
        "PlaceName": "Colombia",
        "Region": ""
    },
    "copenhagen_denmark": {
        "City": "Copenhagen",
        "Country": "Denmark",
        "Lat": 55.6760968,
        "Long": 12.5683372,
        "PlaceID": "copenhagen_denmark",
        "PlaceName": "Copenhagen, Denmark",
        "Region": ""
    },
    "covington_kentucky_usa": {
        "City": "Covington",
        "Country": "USA",
        "Lat": 39.0836712,
        "Long": -84.5085536,
        "PlaceID": "covington_kentucky_usa",
        "PlaceName": "Covington, Kentucky, USA",
        "Region": "Kentucky"
    },
    "cowpastor_barbados": {
        "City": "CowPastor",
        "Country": "Barbados",
        "Lat": 13.193887,
        "Long": -59.543198,
        "PlaceID": "cowpastor_barbados",
        "PlaceName": "CowPastor, Barbados",
        "Region": ""
    },
    "dakar_senegal": {
        "City": "Dakar",
        "Country": "Senegal",
        "Lat": 14.716677,
        "Long": -17.4676861,
        "PlaceID": "dakar_senegal",
        "PlaceName": "Dakar, Senegal",
        "Region": ""
    },
    "detroit_michigan_usa": {
        "City": "Detroit",
        "Country": "USA",
        "Lat": 42.331427,
        "Long": -83.0457538,
        "PlaceID": "detroit_michigan_usa",
        "PlaceName": "Detroit, Michigan, USA",
        "Region": "Michigan"
    },
    "east_st_louis_illinois_usa": {
        "City": "East St. Louis",
        "Country": "USA",
        "Lat": 38.624514,
        "Long": -90.1506465,
        "PlaceID": "east_st_louis_illinois_usa",
        "PlaceName": "East St. Louis, Illinois, USA",
        "Region": "Illinois"
    },
    "ecuador": {
        "City": "",
        "Country": "Ecuador",
        "Lat": -1.831239,
        "Long": -78.183406,
        "PlaceID": "ecuador",
        "PlaceName": "Ecuador",
        "Region": ""
    },
    "england": {
        "City": "",
        "Country": "England",
        "Lat": 52.3555177,
        "Long": -1.1743197,
        "PlaceID": "england",
        "PlaceName": "England",
        "Region": ""
    },
    "english_provinces_england": {
        "City": "",
        "Country": "England",
        "Lat": 52.3555177,
        "Long": -1.1743197,
        "PlaceID": "english_provinces_england",
        "PlaceName": "English Provinces, England",
        "Region": "English Provinces"
    },
    "eschenau_austria": {
        "City": "Eschenau",
        "Country": "Austria",
        "Lat": 48.04875,
        "Long": 15.56751,
        "PlaceID": "eschenau_austria",
        "PlaceName": "Eschenau, Austria",
        "Region": ""
    },
    "europe": {
        "City": "",
        "Country": "Europe",
        "Lat": 54.5259614,
        "Long": 15.2551187,
        "PlaceID": "europe",
        "PlaceName": "Europe",
        "Region": ""
    },
    "falmer_sussex_england": {
        "City": "Falmer",
        "Country": "England",
        "Lat": 50.8670895,
        "Long": -0.087914,
        "PlaceID": "falmer_sussex_england",
        "PlaceName": "Falmer, Sussex, England",
        "Region": "Sussex"
    },
    "florence_italy": {
        "City": "Florence",
        "Country": "Italy",
        "Lat": 43.7695604,
        "Long": 11.2558136,
        "PlaceID": "florence_italy",
        "PlaceName": "Florence, Italy",
        "Region": ""
    },
    "fort_de_france_martinique": {
        "City": "Fort-de-France",
        "Country": "Martinique",
        "Lat": 14.6160647,
        "Long": -61.0587804,
        "PlaceID": "fort_de_france_martinique",
        "PlaceName": "Fort-de-France, Martinique",
        "Region": ""
    },
    "geneva_switzerland": {
        "City": "Geneva",
        "Country": "Switzerland",
        "Lat": 46.2043907,
        "Long": 6.1431577,
        "PlaceID": "geneva_switzerland",
        "PlaceName": "Geneva, Switzerland",
        "Region": ""
    },
    "genoa_italy": {
        "City": "Genoa",
        "Country": "Italy",
        "Lat": 44.4056499,
        "Long": 8.946256,
        "PlaceID": "genoa_italy",
        "PlaceName": "Genoa, Italy",
        "Region": ""
    },
    "georgetown_guyana": {
        "City": "Georgetown",
        "Country": "Guyana",
        "Lat": 6.8012793,
        "Long": -58.1551255,
        "PlaceID": "georgetown_guyana",
        "PlaceName": "Georgetown, Guyana",
        "Region": ""
    },
    "germany": {
        "City": "",
        "Country": "Germany",
        "Lat": 51.165691,
        "Long": 10.451526,
        "PlaceID": "germany",
        "PlaceName": "Germany",
        "Region": ""
    },
    "glen_ellyn_illinois_usa": {
        "City": "Glen Ellyn",
        "Country": "USA",
        "Lat": 41.8775293,
        "Long": -88.0670118,
        "PlaceID": "glen_ellyn_illinois_usa",
        "PlaceName": "Glen Ellyn, Illinois, USA",
        "Region": "Illinois"
    },
    "greece": {
        "City": "",
        "Country": "Greece",
        "Lat": 39.074208,
        "Long": 21.824312,
        "PlaceID": "greece",
        "PlaceName": "Greece",
        "Region": ""
    },
    "haiti": {
        "City": "",
        "Country": "Haiti",
        "Lat": 18.971187,
        "Long": -72.285215,
        "PlaceID": "haiti",
        "PlaceName": "Haiti",
        "Region": ""
    },
    "hamburg_germany": {
        "City": "Hamburg",
        "Country": "Germany",
        "Lat": 53.5510846,
        "Long": 9.9936819,
        "PlaceID": "hamburg_germany",
        "PlaceName": "Hamburg, Germany",
        "Region": ""
    },
    "hanover_germany": {
        "City": "Hanover",
        "Country": "Germany",
        "Lat": 52.3758916,
        "Long": 9.7320104,
        "PlaceID": "hanover_germany",
        "PlaceName": "Hanover, Germany",
        "Region": ""
    },
    "havana_cuba": {
        "City": "Havana",
        "Country": "Cuba",
        "Lat": 23.1135925,
        "Long": -82.3665956,
        "PlaceID": "havana_cuba",
        "PlaceName": "Havana, Cuba",
        "Region": ""
    },
    "ho_trans_volta_togoland": {
        "City": "Ho",
        "Country": "Trans-Volta Togoland",
        "Lat": 6.6101493,
        "Long": 0.4785495,
        "PlaceID": "ho_trans_volta_togoland",
        "PlaceName": "Ho, Trans-Volta Togoland",
        "Region": ""
    },
    "hong_kong": {
        "City": "",
        "Country": "Hong Kong",
        "Lat": 22.396428,
        "Long": 114.109497,
        "PlaceID": "hong_kong",
        "PlaceName": "Hong Kong",
        "Region": ""
    },
    "indianapolis_indiana_usa": {
        "City": "Indianapolis",
        "Country": "USA",
        "Lat": 39.768403,
        "Long": -86.158068,
        "PlaceID": "indianapolis_indiana_usa",
        "PlaceName": "Indianapolis, Indiana, USA",
        "Region": "Indiana"
    },
    "ireland": {
        "City": "",
        "Country": "Ireland",
        "Lat": 53.41291,
        "Long": -8.24389,
        "PlaceID": "ireland",
        "PlaceName": "Ireland",
        "Region": ""
    },
    "italy": {
        "City": "",
        "Country": "Italy",
        "Lat": 41.87194,
        "Long": 12.56738,
        "PlaceID": "italy",
        "PlaceName": "Italy",
        "Region": ""
    },
    "joliet_illinois_usa": {
        "City": "Joliet",
        "Country": "USA",
        "Lat": 41.525031,
        "Long": -88.0817251,
        "PlaceID": "joliet_illinois_usa",
        "PlaceName": "Joliet, Illinois, USA",
        "Region": "Illinois"
    },
    "kansas_city_usa": {
        "City": "Kansas City",
        "Country": "USA",
        "Lat": 39.0997265,
        "Long": -94.5785667,
        "PlaceID": "kansas_city_usa",
        "PlaceName": "Kansas City, USA",
        "Region": ""
    },
    "kingston_jamaica": {
        "City": "Kingston",
        "Country": "Jamaica",
        "Lat": 18.0178743,
        "Long": -76.8099041,
        "PlaceID": "kingston_jamaica",
        "PlaceName": "Kingston, Jamaica",
        "Region": ""
    },
    "la_ciotat_france": {
        "City": "La Ciotat",
        "Country": "France",
        "Lat": 43.173653,
        "Long": 5.605155,
        "PlaceID": "la_ciotat_france",
        "PlaceName": "La Ciotat, France",
        "Region": ""
    },
    "las_vegas_nevada_usa": {
        "City": "Las Vegas",
        "Country": "USA",
        "Lat": 36.1699412,
        "Long": -115.1398296,
        "PlaceID": "las_vegas_nevada_usa",
        "PlaceName": "Las Vegas, Nevada, USA",
        "Region": "Nevada"
    },
    "lebanon": {
        "City": "",
        "Country": "Lebanon",
        "Lat": 33.854721,
        "Long": 35.862285,
        "PlaceID": "lebanon",
        "PlaceName": "Lebanon",
        "Region": ""
    },
    "lecce_italy": {
        "City": "Lecce",
        "Country": "Italy",
        "Lat": 40.3515155,
        "Long": 18.1750161,
        "PlaceID": "lecce_italy",
        "PlaceName": "Lecce, Italy",
        "Region": ""
    },
    "lima_peru": {
        "City": "Lima",
        "Country": "Peru",
        "Lat": -12.0463731,
        "Long": -77.042754,
        "PlaceID": "lima_peru",
        "PlaceName": "Lima, Peru",
        "Region": ""
    },
    "limura_kenya": {
        "City": "Limura",
        "Country": "Kenya",
        "Lat": -1.1069305,
        "Long": 36.6431267,
        "PlaceID": "limura_kenya",
        "PlaceName": "Limura, Kenya",
        "Region": ""
    },
    "liverpool_england": {
        "City": "Liverpool",
        "Country": "England",
        "Lat": 53.4083714,
        "Long": -2.9915726,
        "PlaceID": "liverpool_england",
        "PlaceName": "Liverpool, England",
        "Region": ""
    },
    "london_england": {
        "City": "London",
        "Country": "England",
        "Lat": 51.5073509,
        "Long": -0.1277583,
        "PlaceID": "london_england",
        "PlaceName": "London, England",
        "Region": ""
    },
    "los_angeles_california_usa": {
        "City": "Los Angeles",
        "Country": "USA",
        "Lat": 34.0522342,
        "Long": -118.2436849,
        "PlaceID": "los_angeles_california_usa",
        "PlaceName": "Los Angeles, California, USA",
        "Region": "California"
    },
    "louisville_kentucky_usa": {
        "City": "Louisville",
        "Country": "USA",
        "Lat": 38.2526647,
        "Long": -85.7584557,
        "PlaceID": "louisville_kentucky_usa",
        "PlaceName": "Louisville, Kentucky, USA",
        "Region": "Kentucky"
    },
    "malay_federation_(malaysia)": {
        "City": "",
        "Country": "Malay Federation (Malaysia)",
        "Lat": 5.3266,
        "Long": 100.282196,
        "PlaceID": "malay_federation_(malaysia)",
        "PlaceName": "Malay Federation (Malaysia)",
        "Region": ""
    },
    "manhattan_kansas_usa": {
        "City": "Manhattan",
        "Country": "USA",
        "Lat": 39.1836082,
        "Long": -96.5716694,
        "PlaceID": "manhattan_kansas_usa",
        "PlaceName": "Manhattan, Kansas, USA",
        "Region": "Kansas"
    },
    "manhattan_new_york_usa": {
        "City": "Manhattan",
        "Country": "USA",
        "Lat": 40.7830603,
        "Long": -73.9712488,
        "PlaceID": "manhattan_new_york_usa",
        "PlaceName": "Manhattan, New York, USA",
        "Region": "New York"
    },
    "mar_de_plata_argentina": {
        "City": "Mar de Plata",
        "Country": "Argentina",
        "Lat": -38.0054771,
        "Long": -57.5426106,
        "PlaceID": "mar_de_plata_argentina",
        "PlaceName": "Mar de Plata, Argentina",
        "Region": ""
    },
    "marseilles_france": {
        "City": "Marseilles",
        "Country": "France",
        "Lat": 43.296482,
        "Long": 5.36978,
        "PlaceID": "marseilles_france",
        "PlaceName": "Marseilles, France",
        "Region": ""
    },
    "martinique": {
        "City": "",
        "Country": "Martinique",
        "Lat": 14.641528,
        "Long": -61.024174,
        "PlaceID": "martinique",
        "PlaceName": "Martinique",
        "Region": ""
    },
    "memphis_tennessee_usa": {
        "City": "Memphis",
        "Country": "USA",
        "Lat": 35.1495343,
        "Long": -90.0489801,
        "PlaceID": "memphis_tennessee_usa",
        "PlaceName": "Memphis, Tennessee, USA",
        "Region": "Tennessee"
    },
    "mexico": {
        "City": "",
        "Country": "Mexico",
        "Lat": 23.634501,
        "Long": -102.552784,
        "PlaceID": "mexico",
        "PlaceName": "Mexico",
        "Region": ""
    },
    "mexico_city_mexico": {
        "City": "Mexico City",
        "Country": "Mexico",
        "Lat": 19.4326077,
        "Long": -99.133208,
        "PlaceID": "mexico_city_mexico",
        "PlaceName": "Mexico City, Mexico",
        "Region": ""
    },
    "miami_florida_usa": {
        "City": "Miami",
        "Country": "USA",
        "Lat": 25.7616798,
        "Long": -80.1917902,
        "PlaceID": "miami_florida_usa",
        "PlaceName": "Miami, Florida, USA",
        "Region": "Florida"
    },
    "michigan_usa": {
        "City": "",
        "Country": "USA",
        "Lat": 44.25029,
        "Long": -85.50033,
        "PlaceID": "michigan_usa",
        "PlaceName": "Michigan, USA",
        "Region": "Michigan"
    },
    "milan_italy": {
        "City": "Milan",
        "Country": "Italy",
        "Lat": 45.4642035,
        "Long": 9.189982,
        "PlaceID": "milan_italy",
        "PlaceName": "Milan, Italy",
        "Region": ""
    },
    "mona_jamaica": {
        "City": "Mona",
        "Country": "Jamaica",
        "Lat": 18.0123976,
        "Long": -76.7480805,
        "PlaceID": "mona_jamaica",
        "PlaceName": "Mona, Jamaica",
        "Region": ""
    },
    "montego_bay_saint_james_jamaica": {
        "City": "Montego Bay",
        "Country": "Jamaica",
        "Lat": 18.471215,
        "Long": -77.9398877,
        "PlaceID": "montego_bay_saint_james_jamaica",
        "PlaceName": "Montego Bay, Saint James, Jamaica",
        "Region": "Saint James"
    },
    "montevideo_uruguay": {
        "City": "Montevideo",
        "Country": "Uruguay",
        "Lat": -34.9011127,
        "Long": -56.1645314,
        "PlaceID": "montevideo_uruguay",
        "PlaceName": "Montevideo, Uruguay",
        "Region": ""
    },
    "montreal_canada": {
        "City": "Montreal",
        "Country": "Canada",
        "Lat": 45.5016889,
        "Long": -73.567256,
        "PlaceID": "montreal_canada",
        "PlaceName": "Montreal, Canada",
        "Region": ""
    },
    "morocco": {
        "City": "",
        "Country": "Morocco",
        "Lat": 31.791702,
        "Long": -7.09262,
        "PlaceID": "morocco",
        "PlaceName": "Morocco",
        "Region": ""
    },
    "moscow_russia": {
        "City": "Moscow",
        "Country": "Russia",
        "Lat": 55.755826,
        "Long": 37.6172999,
        "PlaceID": "moscow_russia",
        "PlaceName": "Moscow, Russia",
        "Region": ""
    },
    "munich_germany": {
        "City": "Munich",
        "Country": "Germany",
        "Lat": 48.1351253,
        "Long": 11.5819805,
        "PlaceID": "munich_germany",
        "PlaceName": "Munich, Germany",
        "Region": ""
    },
    "mysore_india": {
        "City": "Mysore",
        "Country": "India",
        "Lat": 12.2958104,
        "Long": 76.6393805,
        "PlaceID": "mysore_india",
        "PlaceName": "Mysore, India",
        "Region": ""
    },
    "nairne_castle_clarendon_jamaica": {
        "City": "Nairne Castle",
        "Country": "Jamaica",
        "Lat": 17.9609693,
        "Long": -77.5897158,
        "PlaceID": "nairne_castle_clarendon_jamaica",
        "PlaceName": "Nairne Castle, Clarendon, Jamaica",
        "Region": "Clarendon"
    },
    "nairobi_kenya": {
        "City": "Nairobi",
        "Country": "Kenya",
        "Lat": -1.2920659,
        "Long": 36.8219462,
        "PlaceID": "nairobi_kenya",
        "PlaceName": "Nairobi, Kenya",
        "Region": ""
    },
    "naples_italy": {
        "City": "Naples",
        "Country": "Italy",
        "Lat": 40.8517746,
        "Long": 14.2681244,
        "PlaceID": "naples_italy",
        "PlaceName": "Naples, Italy",
        "Region": ""
    },
    "new_haven_connecticut_usa": {
        "City": "New Haven",
        "Country": "USA",
        "Lat": 41.308274,
        "Long": -72.9278835,
        "PlaceID": "new_haven_connecticut_usa",
        "PlaceName": "New Haven, Connecticut, USA",
        "Region": "Connecticut"
    },
    "new_place_usa": {
        "City": "New",
        "Country": "USA",
        "Lat": 37.09024,
        "Long": -95.712891,
        "PlaceID": "new_place_usa",
        "PlaceName": "New, Place, USA",
        "Region": "Place"
    },
    "new_york": {
        "City": "",
        "Country": "New York",
        "Lat": 40.7127753,
        "Long": -74.0059728,
        "PlaceID": "new_york",
        "PlaceName": "New York",
        "Region": ""
    },
    "new_york_new_york_usa": {
        "City": "New York",
        "Country": "USA",
        "Lat": 40.7127753,
        "Long": -74.0059728,
        "PlaceID": "new_york_new_york_usa",
        "PlaceName": "New York, New York, USA",
        "Region": "New York"
    },
    "new_zealand": {
        "City": "",
        "Country": "New Zealand",
        "Lat": -40.900557,
        "Long": 174.885971,
        "PlaceID": "new_zealand",
        "PlaceName": "New Zealand",
        "Region": ""
    },
    "nigeria": {
        "City": "",
        "Country": "Nigeria",
        "Lat": 9.081999,
        "Long": 8.675277,
        "PlaceID": "nigeria",
        "PlaceName": "Nigeria",
        "Region": ""
    },
    "oakland_california_usa": {
        "City": "Oakland",
        "Country": "USA",
        "Lat": 37.8043637,
        "Long": -122.2711137,
        "PlaceID": "oakland_california_usa",
        "PlaceName": "Oakland, California, USA",
        "Region": "California"
    },
    "okinawa_japan": {
        "City": "Okinawa",
        "Country": "Japan",
        "Lat": 26.2124013,
        "Long": 127.6809317,
        "PlaceID": "okinawa_japan",
        "PlaceName": "Okinawa, Japan",
        "Region": ""
    },
    "orange_new_jersey_usa": {
        "City": "Orange",
        "Country": "USA",
        "Lat": 40.7706187,
        "Long": -74.2326478,
        "PlaceID": "orange_new_jersey_usa",
        "PlaceName": "Orange, New Jersey, USA",
        "Region": "New Jersey"
    },
    "palm_springs_florida_usa": {
        "City": "Palm Springs",
        "Country": "USA",
        "Lat": 26.6359009,
        "Long": -80.0961538,
        "PlaceID": "palm_springs_florida_usa",
        "PlaceName": "Palm Springs, Florida, USA",
        "Region": "Florida"
    },
    "paris_france": {
        "City": "Paris",
        "Country": "France",
        "Lat": 48.856614,
        "Long": 2.3522219,
        "PlaceID": "paris_france",
        "PlaceName": "Paris, France",
        "Region": ""
    },
    "philadelphia_pennsylvania_usa": {
        "City": "Philadelphia",
        "Country": "USA",
        "Lat": 39.9525839,
        "Long": -75.1652215,
        "PlaceID": "philadelphia_pennsylvania_usa",
        "PlaceName": "Philadelphia, Pennsylvania, USA",
        "Region": "Pennsylvania"
    },
    "philippines": {
        "City": "",
        "Country": "Philippines",
        "Lat": 13.0,
        "Long": 122.0,
        "PlaceID": "philippines",
        "PlaceName": "Philippines",
        "Region": ""
    },
    "pittsburgh_pennsylvania_usa": {
        "City": "Pittsburgh",
        "Country": "USA",
        "Lat": 40.4406248,
        "Long": -79.9958864,
        "PlaceID": "pittsburgh_pennsylvania_usa",
        "PlaceName": "Pittsburgh, Pennsylvania, USA",
        "Region": "Pennsylvania"
    },
    "port_au_prince_haiti": {
        "City": "Port-au-Prince",
        "Country": "Haiti",
        "Lat": 18.594395,
        "Long": -72.3074326,
        "PlaceID": "port_au_prince_haiti",
        "PlaceName": "Port-au-Prince, Haiti",
        "Region": ""
    },
    "port_of_spain_trinidad": {
        "City": "Port-of-Spain",
        "Country": "Trinidad",
        "Lat": 10.6549013,
        "Long": -61.5019256,
        "PlaceID": "port_of_spain_trinidad",
        "PlaceName": "Port-of-Spain, Trinidad",
        "Region": ""
    },
    "portland_oregon_usa": {
        "City": "Portland",
        "Country": "USA",
        "Lat": 45.5122308,
        "Long": -122.6587185,
        "PlaceID": "portland_oregon_usa",
        "PlaceName": "Portland, Oregon, USA",
        "Region": "Oregon"
    },
    "puerto_rico": {
        "City": "",
        "Country": "Puerto Rico",
        "Lat": 18.24829,
        "Long": -66.49989,
        "PlaceID": "puerto_rico",
        "PlaceName": "Puerto Rico",
        "Region": ""
    },
    "reno_nevada_usa": {
        "City": "Reno",
        "Country": "USA",
        "Lat": 39.5296329,
        "Long": -119.8138027,
        "PlaceID": "reno_nevada_usa",
        "PlaceName": "Reno, Nevada, USA",
        "Region": "Nevada"
    },
    "rome_italy": {
        "City": "Rome",
        "Country": "Italy",
        "Lat": 41.9027835,
        "Long": 12.4963655,
        "PlaceID": "rome_italy",
        "PlaceName": "Rome, Italy",
        "Region": ""
    },
    "salvador_de_bahia_brazil": {
        "City": "Salvador de Bahia",
        "Country": "Brazil",
        "Lat": -12.977749,
        "Long": -38.5016301,
        "PlaceID": "salvador_de_bahia_brazil",
        "PlaceName": "Salvador de Bahia, Brazil",
        "Region": ""
    },
    "salzburg_austria": {
        "City": "Salzburg",
        "Country": "Austria",
        "Lat": 47.80949,
        "Long": 13.05501,
        "PlaceID": "salzburg_austria",
        "PlaceName": "Salzburg, Austria",
        "Region": ""
    },
    "san_diego_california_usa": {
        "City": "San Diego",
        "Country": "USA",
        "Lat": 32.715738,
        "Long": -117.1610838,
        "PlaceID": "san_diego_california_usa",
        "PlaceName": "San Diego, California, USA",
        "Region": "California"
    },
    "san_francisco_california_usa": {
        "City": "San Francisco",
        "Country": "USA",
        "Lat": 37.7749295,
        "Long": -122.4194155,
        "PlaceID": "san_francisco_california_usa",
        "PlaceName": "San Francisco, California, USA",
        "Region": "California"
    },
    "santa_cruz_california_usa": {
        "City": "Santa Cruz",
        "Country": "USA",
        "Lat": 36.9741171,
        "Long": -122.0307963,
        "PlaceID": "santa_cruz_california_usa",
        "PlaceName": "Santa Cruz, California, USA",
        "Region": "California"
    },
    "santiago_chile": {
        "City": "Santiago",
        "Country": "Chile",
        "Lat": -33.4488897,
        "Long": -70.6692655,
        "PlaceID": "santiago_chile",
        "PlaceName": "Santiago, Chile",
        "Region": ""
    },
    "sao_paolo_brazil": {
        "City": "Sao Paolo",
        "Country": "Brazil",
        "Lat": -23.5505199,
        "Long": -46.6333094,
        "PlaceID": "sao_paolo_brazil",
        "PlaceName": "Sao Paolo, Brazil",
        "Region": ""
    },
    "scotland": {
        "City": "",
        "Country": "Scotland",
        "Lat": 56.0,
        "Long": -4.0,
        "PlaceID": "scotland",
        "PlaceName": "Scotland",
        "Region": ""
    },
    "seattle_washington_usa": {
        "City": "Seattle",
        "Country": "USA",
        "Lat": 47.6062095,
        "Long": -122.3320708,
        "PlaceID": "seattle_washington_usa",
        "PlaceName": "Seattle, Washington, USA",
        "Region": "Washington"
    },
    "seoul_korea": {
        "City": "Seoul",
        "Country": "Korea",
        "Lat": 37.566535,
        "Long": 126.9779692,
        "PlaceID": "seoul_korea",
        "PlaceName": "Seoul, Korea",
        "Region": ""
    },
    "sibenik_croatia": {
        "City": "Šibenik",
        "Country": "Croatia",
        "Lat": 43.7350196,
        "Long": 15.8952045,
        "PlaceID": "sibenik_croatia",
        "PlaceName": "Šibenik, Croatia",
        "Region": ""
    },
    "singapore": {
        "City": "",
        "Country": "Singapore",
        "Lat": 1.28967,
        "Long": 103.85007,
        "PlaceID": "singapore",
        "PlaceName": "Singapore",
        "Region": ""
    },
    "spain": {
        "City": "",
        "Country": "Spain",
        "Lat": 40.0,
        "Long": -4.0,
        "PlaceID": "spain",
        "PlaceName": "Spain",
        "Region": ""
    },
    "spokane_washington_usa": {
        "City": "Spokane",
        "Country": "USA",
        "Lat": 47.6587802,
        "Long": -117.4260465,
        "PlaceID": "spokane_washington_usa",
        "PlaceName": "Spokane, Washington, USA",
        "Region": "Washington"
    },
    "st_louis_missouri_usa": {
        "City": "St. Louis",
        "Country": "USA",
        "Lat": 38.6270025,
        "Long": -90.1994042,
        "PlaceID": "st_louis_missouri_usa",
        "PlaceName": "St. Louis, Missouri, USA",
        "Region": "Missouri"
    },
    "st_paul_minnesota_usa": {
        "City": "St. Paul",
        "Country": "USA",
        "Lat": 44.9537029,
        "Long": -93.0899578,
        "PlaceID": "st_paul_minnesota_usa",
        "PlaceName": "St. Paul, Minnesota, USA",
        "Region": "Minnesota"
    },
    "st_petersburg_russia": {
        "City": "St. Petersburg",
        "Country": "Russia",
        "Lat": 59.9342802,
        "Long": 30.3350986,
        "PlaceID": "st_petersburg_russia",
        "PlaceName": "St. Petersburg, Russia",
        "Region": ""
    },
    "stockholm_sweden": {
        "City": "Stockholm",
        "Country": "Sweden",
        "Lat": 59.3293235,
        "Long": 18.0685808,
        "PlaceID": "stockholm_sweden",
        "PlaceName": "Stockholm, Sweden",
        "Region": ""
    },
    "sunny_ville_clarendon_jamaica": {
        "City": "Sunny Ville",
        "Country": "Jamaica",
        "Lat": 17.9609693,
        "Long": -77.5897158,
        "PlaceID": "sunny_ville_clarendon_jamaica",
        "PlaceName": "Sunny Ville, Clarendon, Jamaica",
        "Region": "Clarendon"
    },
    "switzerland": {
        "City": "",
        "Country": "Switzerland",
        "Lat": 47.00016,
        "Long": 8.01427,
        "PlaceID": "switzerland",
        "PlaceName": "Switzerland",
        "Region": ""
    },
    "szczecin__poland": {
        "City": "Szczecin ",
        "Country": "Poland",
        "Lat": 53.4285438,
        "Long": 14.5528116,
        "PlaceID": "szczecin__poland",
        "PlaceName": "Szczecin , Poland",
        "Region": ""
    },
    "tokyo_japan": {
        "City": "Tokyo",
        "Country": "Japan",
        "Lat": 35.6894875,
        "Long": 139.6917064,
        "PlaceID": "tokyo_japan",
        "PlaceName": "Tokyo, Japan",
        "Region": ""
    },
    "toronto_canada": {
        "City": "Toronto",
        "Country": "Canada",
        "Lat": 43.653226,
        "Long": -79.3831843,
        "PlaceID": "toronto_canada",
        "PlaceName": "Toronto, Canada",
        "Region": ""
    },
    "toulon_france": {
        "City": "Toulon",
        "Country": "France",
        "Lat": 43.124228,
        "Long": 5.928,
        "PlaceID": "toulon_france",
        "PlaceName": "Toulon, France",
        "Region": ""
    },
    "trinidad": {
        "City": "",
        "Country": "Trinidad",
        "Lat": -14.83333,
        "Long": -64.9,
        "PlaceID": "trinidad",
        "PlaceName": "Trinidad",
        "Region": ""
    },
    "turin_italy": {
        "City": "Turin",
        "Country": "Italy",
        "Lat": 45.070312,
        "Long": 7.6868565,
        "PlaceID": "turin_italy",
        "PlaceName": "Turin, Italy",
        "Region": ""
    },
    "tuskegee_alabama_usa": {
        "City": "Tuskegee",
        "Country": "USA",
        "Lat": 32.430237,
        "Long": -85.7077266,
        "PlaceID": "tuskegee_alabama_usa",
        "PlaceName": "Tuskegee, Alabama, USA",
        "Region": "Alabama"
    },
    "usa": {
        "City": "",
        "Country": "USA",
        "Lat": -14.60485,
        "Long": -57.65625,
        "PlaceID": "usa",
        "PlaceName": "USA",
        "Region": ""
    },
    "vancouver_canada": {
        "City": "Vancouver",
        "Country": "Canada",
        "Lat": 49.2827291,
        "Long": -123.1207375,
        "PlaceID": "vancouver_canada",
        "PlaceName": "Vancouver, Canada",
        "Region": ""
    },
    "venice_italy": {
        "City": "Venice",
        "Country": "Italy",
        "Lat": 45.4408474,
        "Long": 12.3155151,
        "PlaceID": "venice_italy",
        "PlaceName": "Venice, Italy",
        "Region": ""
    },
    "vienna_austria": {
        "City": "Vienna",
        "Country": "Austria",
        "Lat": 48.2081743,
        "Long": 16.3738189,
        "PlaceID": "vienna_austria",
        "PlaceName": "Vienna, Austria",
        "Region": ""
    },
    "washington_dc._usa": {
        "City": "Washington, D.C.",
        "Country": "USA",
        "Lat": 38.9071923,
        "Long": -77.0368707,
        "PlaceID": "washington_dc._usa",
        "PlaceName": "Washington, D.C., USA",
        "Region": ""
    },
    "worchester_massachusettes_usa": {
        "City": "Worchester",
        "Country": "USA",
        "Lat": 42.2625932,
        "Long": -71.8022934,
        "PlaceID": "worchester_massachusettes_usa",
        "PlaceName": "Worchester, Massachusettes, USA",
        "Region": "Massachusettes"
    },
    "wroclaw_poland": {
        "City": "Wroclaw",
        "Country": "Poland",
        "Lat": 51.1078852,
        "Long": 17.0385376,
        "PlaceID": "wroclaw_poland",
        "PlaceName": "Wroclaw, Poland",
        "Region": ""
    },
    "yugoslavia": {
        "City": "",
        "Country": "Yugoslavia",
        "Lat": 44.0,
        "Long": 19.75,
        "PlaceID": "yugoslavia",
        "PlaceName": "Yugoslavia",
        "Region": ""
    },
    "zurich_switzerland": {
        "City": "Zurich",
        "Country": "Switzerland",
        "Lat": 47.3768866,
        "Long": 8.541694,
        "PlaceID": "zurich_switzerland",
        "PlaceName": "Zurich, Switzerland",
        "Region": ""
    }
}